[{
  "_id": {
    "$oid": "672382b42f1ec1c244249b07"
  },
  "title": "心医心理咨询(重庆)有限责任公司",
  "address": "临江门15号第二层",
  "phone": "(023)63807186",
  "lng": 106.578225,
  "lat": 29.566551
},
{
  "_id": {
    "$oid": "672382b42f1ec1c244249b08"
  },
  "title": "重庆市医学心理咨询中心(花卉园西四路)",
  "address": "重庆市渝北区紫荆路167号玛雅上层1栋2层",
  "phone": "(023)67070707",
  "lng": 106.538366,
  "lat": 29.604554
},
{
  "_id": {
    "$oid": "672382b42f1ec1c244249b09"
  },
  "title": "圣安米悦心理咨询全国连锁(嘉滨路店)",
  "address": "嘉陵江滨江路116号圣地大厦",
  "phone": "未知",
  "lng": 106.578902,
  "lat": 29.567573
},
{
  "_id": {
    "$oid": "672382b42f1ec1c244249b0a"
  },
  "title": "重庆小米熊青少年心理咨询中心",
  "address": "重庆市南岸区南坪东路49号",
  "phone": "未知",
  "lng": 106.583087,
  "lat": 29.540223
},
{
  "_id": {
    "$oid": "672382b42f1ec1c244249b0b"
  },
  "title": "重庆仁格心理咨询所",
  "address": "重庆市渝中区观音岩中山一路220号水晶石国际公寓10楼1号",
  "phone": "未知",
  "lng": 106.566953,
  "lat": 29.56204
},
{
  "_id": {
    "$oid": "672382b42f1ec1c244249b0c"
  },
  "title": "重庆方昌公社心理咨询有限公司",
  "address": "重庆市南岸区南滨路诚投天临水岸A区三号楼24-8室",
  "phone": "未知",
  "lng": 106.560017,
  "lat": 29.543928
},
{
  "_id": {
    "$oid": "672382b42f1ec1c244249b0d"
  },
  "title": "重庆德思宏心理咨询服务有限公司",
  "address": "重庆市渝中区亚太路亚太商谷21-17-17",
  "phone": "未知",
  "lng": 106.544602,
  "lat": 29.559967
},
{
  "_id": {
    "$oid": "672382b42f1ec1c244249b0e"
  },
  "title": "重庆心光希望心理咨询有限公司",
  "address": "重庆市南岸区花园路13号",
  "phone": "未知",
  "lng": 106.561543,
  "lat": 29.53128
},
{
  "_id": {
    "$oid": "672382b42f1ec1c244249b0f"
  },
  "title": "重庆德品心理咨询有限公司",
  "address": "重庆市南岸区南坪街道南坪西路38号1栋16-7号",
  "phone": "未知",
  "lng": 106.568735,
  "lat": 29.53548
},
{
  "_id": {
    "$oid": "672382b42f1ec1c244249b10"
  },
  "title": "重庆琳心心理咨询有限公司",
  "address": "重庆市江北区建新南路21号煌华晶萃城2幢16-3室",
  "phone": "(023)65311027",
  "lng": 106.54318,
  "lat": 29.575987
},
{
  "_id": {
    "$oid": "672382b42f1ec1c244249b11"
  },
  "title": "重庆明鉴心理咨询有限公司",
  "address": "重庆市江北区建新南路11号17-5号",
  "phone": "未知",
  "lng": 106.54145,
  "lat": 29.577513
},
{
  "_id": {
    "$oid": "672382b42f1ec1c244249b12"
  },
  "title": "重庆拾间心理咨询有限公司",
  "address": "重庆市渝北区龙溪街道红黄路99号皇冠东和花园C3幢4-5",
  "phone": "未知",
  "lng": 106.544481,
  "lat": 29.59832
},
{
  "_id": {
    "$oid": "672382b42f1ec1c244249b13"
  },
  "title": "重庆华怡心辰心理咨询有限公司",
  "address": "医学院路1号时代天街c馆18号楼1201室",
  "phone": "未知",
  "lng": 106.5187,
  "lat": 29.541579
},
{
  "_id": {
    "$oid": "672382b42f1ec1c244249b14"
  },
  "title": "重庆临江门医院-心理科",
  "address": "重庆市渝中区临江门15号",
  "phone": "未知",
  "lng": 106.578214,
  "lat": 29.56658
},
{
  "_id": {
    "$oid": "672382b42f1ec1c244249b15"
  },
  "title": "重庆市第十一人民医院精神科心理科",
  "address": "重庆市沙坪坝区高滩岩立交重庆市精神病院",
  "phone": "未知",
  "lng": 106.451548,
  "lat": 29.545246
},
{
  "_id": {
    "$oid": "672382b42f1ec1c244249b16"
  },
  "title": "重庆荣格心理咨询",
  "address": "重庆市九龙坡区渝州路126号党校科技大楼9层8号",
  "phone": "(023)68590866",
  "lng": 106.502301,
  "lat": 29.540277
},
{
  "_id": {
    "$oid": "672382b42f1ec1c244249b17"
  },
  "title": "十加十家庭教育心理咨询",
  "address": "重庆市渝北区新溉大道鲁能·星城-11街区",
  "phone": "未知",
  "lng": 106.568538,
  "lat": 29.605343
},
{
  "_id": {
    "$oid": "672382b42f1ec1c244249b18"
  },
  "title": "希望心理咨询中心",
  "address": "重庆市南岸区万寿路60号",
  "phone": "(023)61619995",
  "lng": 106.567906,
  "lat": 29.530445
},
{
  "_id": {
    "$oid": "672382b42f1ec1c244249b19"
  },
  "title": "言灰空心理咨询工作室",
  "address": "重庆市渝中区化龙桥富华路10号",
  "phone": {
    "$numberLong": "13883085088"
  },
  "lng": 106.523644,
  "lat": 29.55392
},
{
  "_id": {
    "$oid": "672382b42f1ec1c244249b1a"
  },
  "title": "涵容心理咨询",
  "address": "金开大道68号金开协信中心3栋14-1室",
  "phone": {
    "$numberLong": "17783709548"
  },
  "lng": 106.540516,
  "lat": 29.633398
},
{
  "_id": {
    "$oid": "672382b42f1ec1c244249b1b"
  },
  "title": "重庆市启明在线心理咨询有限公司",
  "address": "重庆市渝中区大坪正街19号英利国际2号楼43-14号",
  "phone": "未知",
  "lng": 106.52271,
  "lat": 29.544876
},
{
  "_id": {
    "$oid": "672382b42f1ec1c244249b1c"
  },
  "title": "聆静心理咨询",
  "address": "尚品路鲁能星城四街区14栋三单元2-3号",
  "phone": {
    "$numberLong": "15310255866"
  },
  "lng": 106.564778,
  "lat": 29.599342
},
{
  "_id": {
    "$oid": "672382b42f1ec1c244249b1d"
  },
  "title": "重庆寸草心心理咨询有限公司",
  "address": "腾龙大道泽科弹子石中心1幢12-5",
  "phone": {
    "$numberLong": "18203040640"
  },
  "lng": 106.59765,
  "lat": 29.590844
},
{
  "_id": {
    "$oid": "672382b42f1ec1c244249b1e"
  },
  "title": "VIDAR麓沁心理咨询",
  "address": "长江二路龙湖时代天街12栋6楼08号",
  "phone": "未知",
  "lng": 106.518988,
  "lat": 29.539152
},
{
  "_id": {
    "$oid": "672382b42f1ec1c244249b1f"
  },
  "title": "灵犀树心理咨询工作室",
  "address": "新南路龙湖MOCO中心3栋15层14室(北环红星美凯龙)",
  "phone": "(023)67189110",
  "lng": 106.506272,
  "lat": 29.607299
},
{
  "_id": {
    "$oid": "672382b42f1ec1c244249b20"
  },
  "title": "重庆轩逸心理咨询中心",
  "address": "石油路1号恒大名都22幢1202室",
  "phone": "未知",
  "lng": 106.510055,
  "lat": 29.548644
},
{
  "_id": {
    "$oid": "672382b42f1ec1c244249b21"
  },
  "title": "重庆市九龙坡区心理咨询师协会",
  "address": "重庆市九龙坡区前进路38号",
  "phone": "未知",
  "lng": 106.519455,
  "lat": 29.512276
},
{
  "_id": {
    "$oid": "672382b42f1ec1c244249b22"
  },
  "title": "重庆天尧心理咨询中心",
  "address": "重庆市渝北区鲁能星城十三街区2栋1-1、1-16号",
  "phone": "未知",
  "lng": 106.568586,
  "lat": 29.612545
},
{
  "_id": {
    "$oid": "672382b42f1ec1c244249b23"
  },
  "title": "安肯心理咨询(冉家坝店)",
  "address": "龙山街道新南路439号中国华融现代广场3幢健康智谷A区13楼13-13",
  "phone": "(023)67376102,19112388776,4000520088",
  "lng": 106.505265,
  "lat": 29.606039
},
{
  "_id": {
    "$oid": "672382b42f1ec1c244249b24"
  },
  "title": "心里咨询",
  "address": "重庆市江北区海尔路星辰丽苑西侧约40米",
  "phone": "未知",
  "lng": 106.609224,
  "lat": 29.627686
},
{
  "_id": {
    "$oid": "672382b42f1ec1c244249b25"
  },
  "title": "心里咨询",
  "address": "重庆市江北区海尔路星辰丽苑西侧约40米",
  "phone": "未知",
  "lng": 106.609224,
  "lat": 29.627686
},
{
  "_id": {
    "$oid": "672382b42f1ec1c244249b26"
  },
  "title": "OTR心理发展咨询中心",
  "address": "石碾盘东原ARC中央广场1号楼22-13/14",
  "phone": "(023)67823888",
  "lng": 106.466859,
  "lat": 29.557011
},
{
  "_id": {
    "$oid": "672382b42f1ec1c244249b27"
  },
  "title": "重庆淡如心理咨询有限公司",
  "address": "重庆市九龙坡区渝州路8-7-26号",
  "phone": "未知",
  "lng": 106.490331,
  "lat": 29.536896
},
{
  "_id": {
    "$oid": "672382b42f1ec1c244249b28"
  },
  "title": "圣安米悦心理咨询(杨家坪店)",
  "address": "杨家坪正街25号（致电可直接联系线上助理,享助理免费分析）",
  "phone": "未知",
  "lng": 106.52226,
  "lat": 29.51487
},
{
  "_id": {
    "$oid": "672382b42f1ec1c244249b29"
  },
  "title": "重庆市心灵渤海心理咨询中心",
  "address": "重庆市九龙坡区科园一街136号3-1号",
  "phone": "未知",
  "lng": 106.501296,
  "lat": 29.536272
},
{
  "_id": {
    "$oid": "672382b42f1ec1c244249b2a"
  },
  "title": "渝北区第二人民医院-心理门诊",
  "address": "重庆市渝北区武陵路1号附1号",
  "phone": "(023)86889878",
  "lng": 106.519204,
  "lat": 29.591476
},
{
  "_id": {
    "$oid": "672382b42f1ec1c244249b2b"
  },
  "title": "重庆贵立心心理咨询有限公司",
  "address": "重庆市渝北区余溪路中华·两江春城",
  "phone": "未知",
  "lng": 106.496342,
  "lat": 29.603203
},
{
  "_id": {
    "$oid": "672382b42f1ec1c244249b2c"
  },
  "title": "重庆心视界心理咨询有限公司",
  "address": "重庆市渝北区栖霞路18号融创金贸时代23栋6楼",
  "phone": {
    "$numberLong": "13110236760"
  },
  "lng": 106.574062,
  "lat": 29.641215
},
{
  "_id": {
    "$oid": "672382b42f1ec1c244249b2d"
  },
  "title": "森爱心理",
  "address": "龙湖时代天街9栋3104室",
  "phone": "未知",
  "lng": 106.517276,
  "lat": 29.541809
},
{
  "_id": {
    "$oid": "672382b42f1ec1c244249b2e"
  },
  "title": "重庆浅喜深爱心理咨询有限责任公司",
  "address": "重庆市九龙坡区罗汉沟21号解甲园4幢14-3号",
  "phone": "未知",
  "lng": 106.501315,
  "lat": 29.545727
},
{
  "_id": {
    "$oid": "672382b42f1ec1c244249b2f"
  },
  "title": "和悦小屋家庭教育与心理咨询中心",
  "address": "重庆市渝北区人和街道镜泊中路5号远大山那里亲子教育公园办公楼4楼11-1号",
  "phone": "未知",
  "lng": 106.538664,
  "lat": 29.64027
},
{
  "_id": {
    "$oid": "672382b42f1ec1c244249b30"
  },
  "title": "壹零壹心理咨询中心",
  "address": "站南路龙湖光年4栋36-11",
  "phone": "16623466101,18623027827",
  "lng": 106.469791,
  "lat": 29.560555
},
{
  "_id": {
    "$oid": "672382b42f1ec1c244249b31"
  },
  "title": "明亮心里咨询所",
  "address": "西郊支路3号信合大厦15层10号",
  "phone": "(023)68786896,(023)68788219",
  "lng": 106.518698,
  "lat": 29.510629
},
{
  "_id": {
    "$oid": "672382b42f1ec1c244249b32"
  },
  "title": "重庆馨心鑫心理咨询有限公司",
  "address": "重庆市巴南区巴滨路2128号重庆馨心鑫心理",
  "phone": "未知",
  "lng": 106.553638,
  "lat": 29.476284
},
{
  "_id": {
    "$oid": "672382b42f1ec1c244249b33"
  },
  "title": "重庆寸草心心理咨询有限公司两江新区店",
  "address": "重庆市渝北区食品城大道两港中心2幢4-8号",
  "phone": "未知",
  "lng": 106.617436,
  "lat": 29.654457
},
{
  "_id": {
    "$oid": "672382b42f1ec1c244249b34"
  },
  "title": "重庆一欣一阅健康咨询有限公司",
  "address": "栖霞路金贸时代7栋26-6（金渝地铁站1号口步行340米）",
  "phone": {
    "$numberLong": "18725696446"
  },
  "lng": 106.574509,
  "lat": 29.643274
},
{
  "_id": {
    "$oid": "672382b42f1ec1c244249b35"
  },
  "title": "重庆交通大学(科学城校区)-学生心理咨询服务中心",
  "address": "重庆市江津区双福街道福星大道1号重庆交通大学(科学城校区)",
  "phone": "未知",
  "lng": 106.3242,
  "lat": 29.423784
},
{
  "_id": {
    "$oid": "672382b42f1ec1c244249b36"
  },
  "title": "重庆德思宏心理咨询服务有限公司",
  "address": "重庆市渝北区金开大道西段210号",
  "phone": "未知",
  "lng": 106.484496,
  "lat": 29.630729
},
{
  "_id": {
    "$oid": "672382b42f1ec1c244249b37"
  },
  "title": "雨点心理",
  "address": "虎歇路与河运路交叉口西北60米",
  "phone": "未知",
  "lng": 106.506477,
  "lat": 29.548563
},
{
  "_id": {
    "$oid": "672382b42f1ec1c244249b38"
  },
  "title": "西南政法大学(渝北校区)-关心下一代工作委员会心理咨询室",
  "address": "重庆市渝北区宝圣大道301号",
  "phone": "未知",
  "lng": 106.597633,
  "lat": 29.667517
},
{
  "_id": {
    "$oid": "672382b42f1ec1c244249b39"
  },
  "title": "重庆市大渡口区心理咨询师协会",
  "address": "重庆市大渡口区钢花路326号",
  "phone": "(023)68875977",
  "lng": 106.49497,
  "lat": 29.489593
},
{
  "_id": {
    "$oid": "672382b42f1ec1c244249b3a"
  },
  "title": "语蔓心理咨询",
  "address": "重庆市渝北区金州大道力帆·红星国际广场",
  "phone": "未知",
  "lng": 106.551389,
  "lat": 29.650113
},
{
  "_id": {
    "$oid": "672382b42f1ec1c244249b3b"
  },
  "title": "重庆九五医院-心理咨询师协会",
  "address": "重庆市大渡口区大渡口钢花路326号",
  "phone": "未知",
  "lng": 106.495052,
  "lat": 29.489712
},
{
  "_id": {
    "$oid": "672382b42f1ec1c244249b3c"
  },
  "title": "重庆两江新区融智心理咨询服务有限公司",
  "address": "重庆两江新区鸳鸯街道金渝大道28号辅助厂房一层",
  "phone": "未知",
  "lng": 106.517025,
  "lat": 29.672332
},
{
  "_id": {
    "$oid": "672382b42f1ec1c244249b3d"
  },
  "title": "重庆百为心理咨询有限公司",
  "address": "同茂大道418号25-11（维也纳国际酒店中央公园店大厅上25楼）",
  "phone": {
    "$numberLong": "17623611210"
  },
  "lng": 106.576473,
  "lat": 29.730685
},
{
  "_id": {
    "$oid": "672382b42f1ec1c244249b3e"
  },
  "title": "心理咨询",
  "address": "重庆市巴南区渝南大道233号旭辉乐活城F1",
  "phone": "未知",
  "lng": 106.551629,
  "lat": 29.407374
},
{
  "_id": {
    "$oid": "672382b42f1ec1c244249b3f"
  },
  "title": "沙坪坝阳光心理咨询中心",
  "address": "重庆市沙坪坝区QCMC生活区",
  "phone": "未知",
  "lng": 106.321509,
  "lat": 29.552667
},
{
  "_id": {
    "$oid": "672382b42f1ec1c244249b40"
  },
  "title": "荟文楼心理工程中心(第九教学楼)",
  "address": "重庆市北碚区文渊路西南大学",
  "phone": "未知",
  "lng": 106.435732,
  "lat": 29.832844
},
{
  "_id": {
    "$oid": "672382b42f1ec1c244249b41"
  },
  "title": "重庆市静心家园心理咨询有限责任公司",
  "address": "重庆市沙坪坝区大学城师大苑5栋1-16-1",
  "phone": "未知",
  "lng": 106.297368,
  "lat": 29.617615
},
{
  "_id": {
    "$oid": "672382b42f1ec1c244249b42"
  },
  "title": "重庆安吉心理咨询有限公司",
  "address": "重庆市沙坪坝区大学城北路101号29-3",
  "phone": "未知",
  "lng": 106.298795,
  "lat": 29.612127
},
{
  "_id": {
    "$oid": "672382b42f1ec1c244249b43"
  },
  "title": "重庆医药高等专科学校-心理咨询室",
  "address": "重庆市沙坪坝区大学城中路82号",
  "phone": "未知",
  "lng": 106.320784,
  "lat": 29.634388
},
{
  "_id": {
    "$oid": "672382b42f1ec1c244249b44"
  },
  "title": "重庆东华医院-失眠心理卫生中心",
  "address": "重庆市沙坪坝区石井坡168号",
  "phone": "未知",
  "lng": 106.44695,
  "lat": 29.5961
},
{
  "_id": {
    "$oid": "672382b42f1ec1c244249b45"
  },
  "title": "心理咨询",
  "address": "重庆市沙坪坝区银昆高速龙湖U城听蓝湾",
  "phone": "未知",
  "lng": 106.296192,
  "lat": 29.612795
},
{
  "_id": {
    "$oid": "672382b42f1ec1c244249b46"
  },
  "title": "西南大学-心理咨询室",
  "address": "重庆市北碚区天生路2号西南大学内",
  "phone": "未知",
  "lng": 106.437424,
  "lat": 29.832054
},
{
  "_id": {
    "$oid": "672382b42f1ec1c244249b47"
  },
  "title": "重庆医科大学附属儿童医院-心理科",
  "address": "重庆市渝中区重庆医科大学附属儿童医院门诊部",
  "phone": "未知",
  "lng": 106.560175,
  "lat": 29.561168
},
{
  "_id": {
    "$oid": "672382b42f1ec1c244249b48"
  },
  "title": "道易馆取名(海棠溪店)",
  "address": "溪新街48号5单元1层3号(上浩地铁站4A口旁)",
  "phone": {
    "$numberLong": "17708345133"
  },
  "lng": 106.599903,
  "lat": 29.551852
},
{
  "_id": {
    "$oid": "672382b42f1ec1c244249b49"
  },
  "title": "乾缘堂",
  "address": "松石北路186号",
  "phone": "(023)67023530",
  "lng": 106.511477,
  "lat": 29.595516
},
{
  "_id": {
    "$oid": "672382b42f1ec1c244249b4a"
  },
  "title": "重庆乐享心途心理成长中心",
  "address": "庆云路1号IFS国金中心24-9号（当日可约,致电享线上助理免费分析）",
  "phone": "未知",
  "lng": 106.579215,
  "lat": 29.582068
},
{
  "_id": {
    "$oid": "672382b42f1ec1c244249b4b"
  },
  "title": "桔子山居身心疗愈空间",
  "address": "峡口镇公园路西流村63号",
  "phone": {
    "$numberLong": "15320613783"
  },
  "lng": 106.660146,
  "lat": 29.565594
},
{
  "_id": {
    "$oid": "672382b42f1ec1c244249b4c"
  },
  "title": "重庆九五医院-心理科",
  "address": "重庆市大渡口区钢花路326号",
  "phone": "未知",
  "lng": 106.494887,
  "lat": 29.489537
},
{
  "_id": {
    "$oid": "672382b42f1ec1c244249b4d"
  },
  "title": "青少年儿童心理中心",
  "address": "重庆市沙坪坝区内环快速与高滩岩立交交叉路口往东南约100米",
  "phone": "未知",
  "lng": 106.450924,
  "lat": 29.545809
}]